@NikonD5300/ver1.01/wgs84
$GPGGA,114503.00,4316.5479,N,00559.6923,W,1,,,3.1,M,,,,*0B
$GPRMC,114503.00,A,4316.5479,N,00559.6923,W,0.6,,081216,,,A*62
$GPGGA,114522.00,4316.5411,N,00559.6909,W,1,,,2.1,M,,,,*0F
$GPRMC,114522.00,A,4316.5411,N,00559.6909,W,0.1,,081216,,,A*60
$GPGGA,114527.00,4316.5300,N,00559.6971,W,1,,,26.1,M,,,,*34
$GPRMC,114527.00,A,4316.5300,N,00559.6971,W,0.2,,081216,,,A*6E
$GPGGA,114558.00,4316.5166,N,00559.6887,W,1,,,14.1,M,,,,*37
$GPRMC,114558.00,A,4316.5166,N,00559.6887,W,0.0,,081216,,,A*6E
$GPGGA,114628.00,4316.5194,N,00559.6855,W,1,,,21.1,M,,,,*37
$GPRMC,114628.00,A,4316.5194,N,00559.6855,W,1.0,,081216,,,A*69
$GPGGA,114659.00,4316.5190,N,00559.6849,W,1,,,39.1,M,,,,*31
$GPRMC,114659.00,A,4316.5190,N,00559.6849,W,0.0,,081216,,,A*67
$GPGGA,114729.00,4316.5208,N,00559.6825,W,1,,,43.1,M,,,,*32
$GPRMC,114729.00,A,4316.5208,N,00559.6825,W,0.8,,081216,,,A*61
$GPGGA,114759.00,4316.5278,N,00559.6751,W,1,,,39.1,M,,,,*33
$GPRMC,114759.00,A,4316.5278,N,00559.6751,W,0.7,,081216,,,A*62
$GPGGA,114829.00,4316.5273,N,00559.6731,W,1,,,35.1,M,,,,*3A
$GPRMC,114829.00,A,4316.5273,N,00559.6731,W,1.1,,081216,,,A*60
$GPGGA,114900.00,4316.5304,N,00559.6660,W,1,,,32.1,M,,,,*33
$GPRMC,114900.00,A,4316.5304,N,00559.6660,W,1.1,,081216,,,A*6E
$GPGGA,114930.00,4316.5339,N,00559.6604,W,1,,,31.1,M,,,,*3F
$GPRMC,114930.00,A,4316.5339,N,00559.6604,W,0.0,,081216,,,A*61
$GPGGA,115000.00,4316.5335,N,00559.6596,W,1,,,32.1,M,,,,*33
$GPRMC,115000.00,A,4316.5335,N,00559.6596,W,0.0,,081216,,,A*6E
$GPGGA,115031.00,4316.5328,N,00559.6581,W,1,,,33.1,M,,,,*3A
$GPRMC,115031.00,A,4316.5328,N,00559.6581,W,0.5,,081216,,,A*63
$GPGGA,115101.00,4316.5323,N,00559.6567,W,1,,,35.1,M,,,,*3D
$GPRMC,115101.00,A,4316.5323,N,00559.6567,W,1.2,,081216,,,A*64
$GPGGA,115117.00,4316.5322,N,00559.6565,W,1,,,35.1,M,,,,*39
$GPRMC,115117.00,A,4316.5322,N,00559.6565,W,0.0,,081216,,,A*63
$GPGGA,115218.00,4316.5206,N,00559.5426,W,1,,,70.1,M,,,,*36
$GPRMC,115218.00,A,4316.5206,N,00559.5426,W,0.0,,081216,,,A*6D
$GPGGA,115248.00,4316.5279,N,00559.5416,W,1,,,152.1,M,,,,*09
$GPRMC,115248.00,A,4316.5279,N,00559.5416,W,0.8,,081216,,,A*6B
$GPGGA,115303.00,4316.5293,N,00559.5662,W,1,,,87.1,M,,,,*3B
$GPRMC,115303.00,A,4316.5293,N,00559.5662,W,0.0,,081216,,,A*68
$GPGGA,115333.00,4316.5328,N,00559.5654,W,1,,,84.1,M,,,,*3F
$GPRMC,115333.00,A,4316.5328,N,00559.5654,W,0.4,,081216,,,A*6B
$GPGGA,115404.00,4316.5314,N,00559.5572,W,1,,,82.1,M,,,,*32
$GPRMC,115404.00,A,4316.5314,N,00559.5572,W,1.0,,081216,,,A*65
$GPGGA,115434.00,4316.5396,N,00559.5453,W,1,,,84.1,M,,,,*3F
$GPRMC,115434.00,A,4316.5396,N,00559.5453,W,0.8,,081216,,,A*67
$GPGGA,115504.00,4316.5433,N,00559.5325,W,1,,,88.1,M,,,,*3F
$GPRMC,115504.00,A,4316.5433,N,00559.5325,W,1.2,,081216,,,A*60
$GPGGA,115519.00,4316.5453,N,00559.5297,W,1,,,91.1,M,,,,*35
$GPRMC,115519.00,A,4316.5453,N,00559.5297,W,0.0,,081216,,,A*61
$GPGGA,115548.00,4316.5326,N,00559.4287,W,1,,,86.1,M,,,,*32
$GPRMC,115548.00,A,4316.5326,N,00559.4287,W,0.0,,081216,,,A*60
$GPGGA,115612.00,4316.5315,N,00559.4480,W,1,,,96.1,M,,,,*3E
$GPRMC,115612.00,A,4316.5315,N,00559.4480,W,0.0,,081216,,,A*6D
$GPGGA,115645.00,4316.5426,N,00559.4774,W,1,,,163.1,M,,,,*08
$GPRMC,115645.00,A,4316.5426,N,00559.4774,W,0.0,,081216,,,A*60
$GPGGA,120626.00,4316.5193,N,00559.4640,W,1,,,88.1,M,,,,*32
$GPRMC,120626.00,A,4316.5193,N,00559.4640,W,1.6,,081216,,,A*69
$GPGGA,120656.00,4316.5091,N,00559.4874,W,1,,,88.1,M,,,,*3F
$GPRMC,120656.00,A,4316.5091,N,00559.4874,W,0.0,,081216,,,A*63
$GPGGA,120726.00,4316.4999,N,00559.4962,W,1,,,86.1,M,,,,*31
$GPRMC,120726.00,A,4316.4999,N,00559.4962,W,1.6,,081216,,,A*64
$GPGGA,120756.00,4316.5006,N,00559.4986,W,1,,,89.1,M,,,,*3D
$GPRMC,120756.00,A,4316.5006,N,00559.4986,W,0.4,,081216,,,A*64
$GPGGA,120826.00,4316.5021,N,00559.5017,W,1,,,95.1,M,,,,*3D
$GPRMC,120826.00,A,4316.5021,N,00559.5017,W,1.8,,081216,,,A*64
$GPGGA,120857.00,4316.5021,N,00559.5016,W,1,,,95.1,M,,,,*3A
$GPRMC,120857.00,A,4316.5021,N,00559.5016,W,0.0,,081216,,,A*6A
$GPGGA,120927.00,4316.5021,N,00559.5015,W,1,,,95.1,M,,,,*3F
$GPRMC,120927.00,A,4316.5021,N,00559.5015,W,0.0,,081216,,,A*6F
$GPGGA,120957.00,4316.5021,N,00559.5014,W,1,,,95.1,M,,,,*39
$GPRMC,120957.00,A,4316.5021,N,00559.5014,W,0.7,,081216,,,A*6E
$GPGGA,121027.00,4316.5016,N,00559.5016,W,1,,,97.1,M,,,,*32
$GPRMC,121027.00,A,4316.5016,N,00559.5016,W,0.0,,081216,,,A*60
$GPGGA,121057.00,4316.5005,N,00559.5015,W,1,,,97.1,M,,,,*34
$GPRMC,121057.00,A,4316.5005,N,00559.5015,W,0.0,,081216,,,A*66
$GPGGA,121128.00,4316.5000,N,00559.5013,W,1,,,98.1,M,,,,*31
$GPRMC,121128.00,A,4316.5000,N,00559.5013,W,0.0,,081216,,,A*6C
$GPGGA,121158.00,4316.4996,N,00559.5014,W,1,,,99.1,M,,,,*37
$GPRMC,121158.00,A,4316.4996,N,00559.5014,W,0.0,,081216,,,A*6B
$GPGGA,121228.00,4316.4992,N,00559.5012,W,1,,,100.1,M,,,,*00
$GPRMC,121228.00,A,4316.4992,N,00559.5012,W,0.0,,081216,,,A*6D
$GPGGA,121258.00,4316.4987,N,00559.5010,W,1,,,101.1,M,,,,*00
$GPRMC,121258.00,A,4316.4987,N,00559.5010,W,0.0,,081216,,,A*6C
$GPGGA,121329.00,4316.4985,N,00559.5008,W,1,,,102.1,M,,,,*0F
$GPRMC,121329.00,A,4316.4985,N,00559.5008,W,0.0,,081216,,,A*60
$GPGGA,121359.00,4316.4981,N,00559.5006,W,1,,,103.1,M,,,,*03
$GPRMC,121359.00,A,4316.4981,N,00559.5006,W,1.0,,081216,,,A*6C
$GPGGA,121429.00,4316.4981,N,00559.5006,W,1,,,103.1,M,,,,*03
$GPRMC,121429.00,A,4316.4981,N,00559.5006,W,0.0,,081216,,,A*6D
$GPGGA,121500.00,4316.4980,N,00559.5012,W,1,,,104.1,M,,,,*0A
$GPRMC,121500.00,A,4316.4980,N,00559.5012,W,0.0,,081216,,,A*63
$GPGGA,121802.00,4316.4975,N,00559.5009,W,1,,,105.1,M,,,,*04
$GPRMC,121802.00,A,4316.4975,N,00559.5009,W,0.9,,081216,,,A*65
$GPGGA,121832.00,4316.4968,N,00559.5006,W,1,,,107.1,M,,,,*06
$GPRMC,121832.00,A,4316.4968,N,00559.5006,W,0.0,,081216,,,A*6C
$GPGGA,121902.00,4316.4966,N,00559.5006,W,1,,,108.1,M,,,,*05
$GPRMC,121902.00,A,4316.4966,N,00559.5006,W,2.5,,081216,,,A*67
$GPGGA,121933.00,4316.4961,N,00559.5004,W,1,,,109.1,M,,,,*03
$GPRMC,121933.00,A,4316.4961,N,00559.5004,W,0.0,,081216,,,A*67
$GPGGA,122003.00,4316.4959,N,00559.5003,W,1,,,109.1,M,,,,*06
$GPRMC,122003.00,A,4316.4959,N,00559.5003,W,1.2,,081216,,,A*61
$GPGGA,122033.00,4316.4897,N,00559.5034,W,1,,,159.1,M,,,,*07
$GPRMC,122033.00,A,4316.4897,N,00559.5034,W,0.0,,081216,,,A*66
$GPGGA,122104.00,4316.4886,N,00559.4957,W,1,,,163.1,M,,,,*06
$GPRMC,122104.00,A,4316.4886,N,00559.4957,W,0.0,,081216,,,A*6E
$GPGGA,122134.00,4316.4862,N,00559.4952,W,1,,,168.1,M,,,,*01
$GPRMC,122134.00,A,4316.4862,N,00559.4952,W,0.0,,081216,,,A*62
$GPGGA,122204.00,4316.4833,N,00559.4779,W,1,,,176.1,M,,,,*0D
$GPRMC,122204.00,A,4316.4833,N,00559.4779,W,0.0,,081216,,,A*61
$GPGGA,122235.00,4316.4669,N,00559.4525,W,1,,,176.1,M,,,,*05
$GPRMC,122235.00,A,4316.4669,N,00559.4525,W,0.0,,081216,,,A*69
$GPGGA,122305.00,4316.4466,N,00559.4313,W,1,,,172.1,M,,,,*0D
$GPRMC,122305.00,A,4316.4466,N,00559.4313,W,0.0,,081216,,,A*65
$GPGGA,122336.00,4316.4482,N,00559.4301,W,1,,,171.1,M,,,,*07
$GPRMC,122336.00,A,4316.4482,N,00559.4301,W,0.0,,081216,,,A*6C
$GPGGA,122406.00,4316.4405,N,00559.4242,W,1,,,171.1,M,,,,*0A
$GPRMC,122406.00,A,4316.4405,N,00559.4242,W,0.0,,081216,,,A*61
$GPGGA,122436.00,4316.4385,N,00559.4310,W,1,,,180.1,M,,,,*0E
$GPRMC,122436.00,A,4316.4385,N,00559.4310,W,1.4,,081216,,,A*6E
$GPGGA,122507.00,4316.4344,N,00559.4317,W,1,,,209.1,M,,,,*05
$GPRMC,122507.00,A,4316.4344,N,00559.4317,W,0.0,,081216,,,A*62
$GPGGA,122537.00,4316.4198,N,00559.4128,W,1,,,268.1,M,,,,*0C
$GPRMC,122537.00,A,4316.4198,N,00559.4128,W,1.0,,081216,,,A*6D
$GPGGA,122608.00,4316.4233,N,00559.4147,W,1,,,263.1,M,,,,*03
$GPRMC,122608.00,A,4316.4233,N,00559.4147,W,1.2,,081216,,,A*6B
$GPGGA,122638.00,4316.4231,N,00559.4228,W,1,,,268.1,M,,,,*03
$GPRMC,122638.00,A,4316.4231,N,00559.4228,W,0.4,,081216,,,A*67
$GPGGA,122709.00,4316.4199,N,00559.4256,W,1,,,283.1,M,,,,*0D
$GPRMC,122709.00,A,4316.4199,N,00559.4256,W,0.0,,081216,,,A*68
$GPGGA,122740.00,4316.4224,N,00559.4169,W,1,,,294.1,M,,,,*0C
$GPRMC,122740.00,A,4316.4224,N,00559.4169,W,0.6,,081216,,,A*69
$GPGGA,122810.00,4316.4271,N,00559.4174,W,1,,,295.1,M,,,,*0B
$GPRMC,122810.00,A,4316.4271,N,00559.4174,W,0.0,,081216,,,A*69
$GPGGA,122840.00,4316.4399,N,00559.4171,W,1,,,295.1,M,,,,*0C
$GPRMC,122840.00,A,4316.4399,N,00559.4171,W,0.0,,081216,,,A*6E
$GPGGA,122911.00,4316.4412,N,00559.4059,W,1,,,297.1,M,,,,*04
$GPRMC,122911.00,A,4316.4412,N,00559.4059,W,0.0,,081216,,,A*64
$GPGGA,122941.00,4316.4338,N,00559.4015,W,1,,,295.1,M,,,,*04
$GPRMC,122941.00,A,4316.4338,N,00559.4015,W,0.0,,081216,,,A*66
$GPGGA,123012.00,4316.4261,N,00559.4049,W,1,,,293.1,M,,,,*08
$GPRMC,123012.00,A,4316.4261,N,00559.4049,W,0.0,,081216,,,A*6C
$GPGGA,123042.00,4316.4160,N,00559.4028,W,1,,,294.1,M,,,,*0F
$GPRMC,123042.00,A,4316.4160,N,00559.4028,W,0.0,,081216,,,A*6C
$GPGGA,123151.00,4316.4152,N,00559.4662,W,1,,,296.1,M,,,,*07
$GPRMC,123151.00,A,4316.4152,N,00559.4662,W,1.1,,081216,,,A*66
$GPGGA,123222.00,4316.3996,N,00559.4212,W,1,,,296.1,M,,,,*04
$GPRMC,123222.00,A,4316.3996,N,00559.4212,W,1.3,,081216,,,A*67
$GPGGA,123252.00,4316.3889,N,00559.4073,W,1,,,296.1,M,,,,*09
$GPRMC,123252.00,A,4316.3889,N,00559.4073,W,0.0,,081216,,,A*68
$GPGGA,123323.00,4316.3851,N,00559.4022,W,1,,,294.1,M,,,,*0D
$GPRMC,123323.00,A,4316.3851,N,00559.4022,W,0.0,,081216,,,A*6E
$GPGGA,123353.00,4316.3844,N,00559.4009,W,1,,,295.1,M,,,,*06
$GPRMC,123353.00,A,4316.3844,N,00559.4009,W,1.9,,081216,,,A*6C
$GPGGA,123423.00,4316.3842,N,00559.3980,W,1,,,293.1,M,,,,*09
$GPRMC,123423.00,A,4316.3842,N,00559.3980,W,0.0,,081216,,,A*6D
$GPGGA,123453.00,4316.3841,N,00559.3960,W,1,,,293.1,M,,,,*03
$GPRMC,123453.00,A,4316.3841,N,00559.3960,W,0.0,,081216,,,A*67
$GPGGA,123524.00,4316.3812,N,00559.3958,W,1,,,297.1,M,,,,*0B
$GPRMC,123524.00,A,4316.3812,N,00559.3958,W,0.0,,081216,,,A*6B
$GPGGA,123554.00,4316.3810,N,00559.3970,W,1,,,294.1,M,,,,*07
$GPRMC,123554.00,A,4316.3810,N,00559.3970,W,0.0,,081216,,,A*64
$GPGGA,123625.00,4316.3827,N,00559.3918,W,1,,,291.1,M,,,,*0D
$GPRMC,123625.00,A,4316.3827,N,00559.3918,W,0.0,,081216,,,A*6B
$GPGGA,123655.00,4316.3834,N,00559.3901,W,1,,,289.1,M,,,,*09
$GPRMC,123655.00,A,4316.3834,N,00559.3901,W,0.0,,081216,,,A*66
$GPGGA,123726.00,4316.3854,N,00559.3856,W,1,,,288.1,M,,,,*08
$GPRMC,123726.00,A,4316.3854,N,00559.3856,W,0.0,,081216,,,A*66
$GPGGA,123756.00,4316.3834,N,00559.3841,W,1,,,288.1,M,,,,*0F
$GPRMC,123756.00,A,4316.3834,N,00559.3841,W,0.7,,081216,,,A*66
$GPGGA,123827.00,4316.3842,N,00559.3852,W,1,,,285.1,M,,,,*08
$GPRMC,123827.00,A,4316.3842,N,00559.3852,W,0.7,,081216,,,A*6C
$GPGGA,123857.00,4316.3829,N,00559.3899,W,1,,,299.1,M,,,,*08
$GPRMC,123857.00,A,4316.3829,N,00559.3899,W,0.5,,081216,,,A*63
$GPGGA,123927.00,4316.3830,N,00559.3878,W,1,,,294.1,M,,,,*04
$GPRMC,123927.00,A,4316.3830,N,00559.3878,W,0.2,,081216,,,A*65
$GPGGA,123958.00,4316.3919,N,00559.3921,W,1,,,283.1,M,,,,*0D
$GPRMC,123958.00,A,4316.3919,N,00559.3921,W,1.0,,081216,,,A*69
$GPGGA,124028.00,4316.3923,N,00559.3847,W,1,,,279.1,M,,,,*09
$GPRMC,124028.00,A,4316.3923,N,00559.3847,W,0.0,,081216,,,A*69
$GPGGA,124058.00,4316.3910,N,00559.3778,W,1,,,295.1,M,,,,*0F
$GPRMC,124058.00,A,4316.3910,N,00559.3778,W,1.5,,081216,,,A*69
$GPGGA,124128.00,4316.3917,N,00559.3674,W,1,,,291.1,M,,,,*07
$GPRMC,124128.00,A,4316.3917,N,00559.3674,W,0.0,,081216,,,A*61
$GPGGA,124159.00,4316.3912,N,00559.3612,W,1,,,287.1,M,,,,*03
$GPRMC,124159.00,A,4316.3912,N,00559.3612,W,0.4,,081216,,,A*66
$GPGGA,124229.00,4316.3934,N,00559.3657,W,1,,,289.1,M,,,,*0C
$GPRMC,124229.00,A,4316.3934,N,00559.3657,W,0.0,,081216,,,A*63
$GPGGA,124300.00,4316.3869,N,00559.3582,W,1,,,297.1,M,,,,*0B
$GPRMC,124300.00,A,4316.3869,N,00559.3582,W,0.0,,081216,,,A*6B
$GPGGA,124330.00,4316.3834,N,00559.3529,W,1,,,294.1,M,,,,*02
$GPRMC,124330.00,A,4316.3834,N,00559.3529,W,0.0,,081216,,,A*61
$GPGGA,124400.00,4316.3952,N,00559.3581,W,1,,,286.1,M,,,,*06
$GPRMC,124400.00,A,4316.3952,N,00559.3581,W,0.0,,081216,,,A*66
$GPGGA,124431.00,4316.3953,N,00559.3489,W,1,,,286.1,M,,,,*0C
$GPRMC,124431.00,A,4316.3953,N,00559.3489,W,1.1,,081216,,,A*6C
$GPGGA,124501.00,4316.3954,N,00559.3475,W,1,,,293.1,M,,,,*0E
$GPRMC,124501.00,A,4316.3954,N,00559.3475,W,0.0,,081216,,,A*6A
$GPGGA,124531.00,4316.3961,N,00559.3450,W,1,,,296.1,M,,,,*09
$GPRMC,124531.00,A,4316.3961,N,00559.3450,W,0.0,,081216,,,A*68
$GPGGA,124602.00,4316.3989,N,00559.3427,W,1,,,294.1,M,,,,*0E
$GPRMC,124602.00,A,4316.3989,N,00559.3427,W,0.0,,081216,,,A*6D
$GPGGA,124633.00,4316.3972,N,00559.3360,W,1,,,295.1,M,,,,*0D
$GPRMC,124633.00,A,4316.3972,N,00559.3360,W,0.0,,081216,,,A*6F
$GPGGA,124703.00,4316.3994,N,00559.3343,W,1,,,295.1,M,,,,*06
$GPRMC,124703.00,A,4316.3994,N,00559.3343,W,0.0,,081216,,,A*64
$GPGGA,124740.00,4316.3672,N,00559.2931,W,1,,,292.1,M,,,,*0F
$GPRMC,124740.00,A,4316.3672,N,00559.2931,W,0.0,,081216,,,A*6A
$GPGGA,124811.00,4316.3765,N,00559.3091,W,1,,,292.1,M,,,,*01
$GPRMC,124811.00,A,4316.3765,N,00559.3091,W,0.0,,081216,,,A*64
$GPGGA,124841.00,4316.3754,N,00559.3130,W,1,,,295.1,M,,,,*0B
$GPRMC,124841.00,A,4316.3754,N,00559.3130,W,0.0,,081216,,,A*69
$GPGGA,124912.00,4316.3797,N,00559.3174,W,1,,,299.1,M,,,,*0F
$GPRMC,124912.00,A,4316.3797,N,00559.3174,W,0.0,,081216,,,A*61
$GPGGA,124942.00,4316.3840,N,00559.3095,W,1,,,289.1,M,,,,*00
$GPRMC,124942.00,A,4316.3840,N,00559.3095,W,0.0,,081216,,,A*6F
$GPGGA,125013.00,4316.3832,N,00559.3009,W,1,,,294.1,M,,,,*00
$GPRMC,125013.00,A,4316.3832,N,00559.3009,W,0.0,,081216,,,A*63
$GPGGA,125043.00,4316.3839,N,00559.2926,W,1,,,303.1,M,,,,*04
$GPRMC,125043.00,A,4316.3839,N,00559.2926,W,0.0,,081216,,,A*68
$GPGGA,125114.00,4316.3913,N,00559.2905,W,1,,,308.1,M,,,,*04
$GPRMC,125114.00,A,4316.3913,N,00559.2905,W,0.0,,081216,,,A*63
$GPGGA,125144.00,4316.3908,N,00559.2861,W,1,,,317.1,M,,,,*06
$GPRMC,125144.00,A,4316.3908,N,00559.2861,W,0.0,,081216,,,A*6F
$GPGGA,125215.00,4316.3808,N,00559.2705,W,1,,,317.1,M,,,,*0D
$GPRMC,125215.00,A,4316.3808,N,00559.2705,W,0.0,,081216,,,A*64
$GPGGA,125246.00,4316.3714,N,00559.2611,W,1,,,315.1,M,,,,*0F
$GPRMC,125246.00,A,4316.3714,N,00559.2611,W,0.0,,081216,,,A*64
$GPGGA,125317.00,4316.3570,N,00559.2450,W,1,,,322.1,M,,,,*09
$GPRMC,125317.00,A,4316.3570,N,00559.2450,W,0.6,,081216,,,A*60
$GPGGA,125347.00,4316.3526,N,00559.2419,W,1,,,318.1,M,,,,*0B
$GPRMC,125347.00,A,4316.3526,N,00559.2419,W,0.0,,081216,,,A*6D
$GPGGA,125417.00,4316.3530,N,00559.2459,W,1,,,319.1,M,,,,*0B
$GPRMC,125417.00,A,4316.3530,N,00559.2459,W,0.0,,081216,,,A*6C
$GPGGA,125448.00,4316.3491,N,00559.2441,W,1,,,318.1,M,,,,*03
$GPRMC,125448.00,A,4316.3491,N,00559.2441,W,0.0,,081216,,,A*65
$GPGGA,125518.00,4316.3477,N,00559.2460,W,1,,,315.1,M,,,,*01
$GPRMC,125518.00,A,4316.3477,N,00559.2460,W,0.9,,081216,,,A*63
$GPGGA,125549.00,4316.3493,N,00559.2500,W,1,,,313.1,M,,,,*0E
$GPRMC,125549.00,A,4316.3493,N,00559.2500,W,0.0,,081216,,,A*63
$GPGGA,125620.00,4316.3380,N,00559.2432,W,1,,,313.1,M,,,,*07
$GPRMC,125620.00,A,4316.3380,N,00559.2432,W,0.0,,081216,,,A*6A
$GPGGA,125650.00,4316.3305,N,00559.2394,W,1,,,313.1,M,,,,*06
$GPRMC,125650.00,A,4316.3305,N,00559.2394,W,0.7,,081216,,,A*6C
$GPGGA,125720.00,4316.3225,N,00559.2377,W,1,,,312.1,M,,,,*0F
$GPRMC,125720.00,A,4316.3225,N,00559.2377,W,0.0,,081216,,,A*63
$GPGGA,125751.00,4316.3199,N,00559.2513,W,1,,,313.1,M,,,,*08
$GPRMC,125751.00,A,4316.3199,N,00559.2513,W,0.0,,081216,,,A*65
$GPGGA,125821.00,4316.3140,N,00559.2661,W,1,,,313.1,M,,,,*02
$GPRMC,125821.00,A,4316.3140,N,00559.2661,W,0.0,,081216,,,A*6F
$GPGGA,130000.00,4316.2854,N,00559.2646,W,1,,,315.1,M,,,,*03
$GPRMC,130000.00,A,4316.2854,N,00559.2646,W,2.3,,081216,,,A*69
$GPGGA,130031.00,4316.2793,N,00559.2674,W,1,,,315.1,M,,,,*04
$GPRMC,130031.00,A,4316.2793,N,00559.2674,W,0.3,,081216,,,A*6C
$GPGGA,130101.00,4316.2531,N,00559.2729,W,1,,,314.1,M,,,,*04
$GPRMC,130101.00,A,4316.2531,N,00559.2729,W,0.0,,081216,,,A*6E
$GPGGA,130132.00,4316.2588,N,00559.2757,W,1,,,314.1,M,,,,*0F
$GPRMC,130132.00,A,4316.2588,N,00559.2757,W,0.0,,081216,,,A*65
$GPGGA,130202.00,4316.2571,N,00559.2703,W,1,,,313.1,M,,,,*0F
$GPRMC,130202.00,A,4316.2571,N,00559.2703,W,0.0,,081216,,,A*62
$GPGGA,130233.00,4316.2487,N,00559.2647,W,1,,,312.1,M,,,,*05
$GPRMC,130233.00,A,4316.2487,N,00559.2647,W,0.0,,081216,,,A*69
$GPGGA,130426.00,4316.2036,N,00559.2985,W,1,,,315.1,M,,,,*0F
$GPRMC,130426.00,A,4316.2036,N,00559.2985,W,0.0,,081216,,,A*64
$GPGGA,130457.00,4316.2139,N,00559.2739,W,1,,,315.1,M,,,,*0E
$GPRMC,130457.00,A,4316.2139,N,00559.2739,W,0.0,,081216,,,A*65
$GPGGA,130538.00,4316.2524,N,00559.2293,W,1,,,313.1,M,,,,*0D
$GPRMC,130538.00,A,4316.2524,N,00559.2293,W,0.0,,081216,,,A*60
$GPGGA,130609.00,4316.2159,N,00559.1881,W,1,,,315.1,M,,,,*0E
$GPRMC,130609.00,A,4316.2159,N,00559.1881,W,0.0,,081216,,,A*65
$GPGGA,130639.00,4316.2273,N,00559.1891,W,1,,,316.1,M,,,,*04
$GPRMC,130639.00,A,4316.2273,N,00559.1891,W,0.0,,081216,,,A*6C
$GPGGA,130710.00,4316.2494,N,00559.2075,W,1,,,316.1,M,,,,*00
$GPRMC,130710.00,A,4316.2494,N,00559.2075,W,0.0,,081216,,,A*68
$GPGGA,130740.00,4316.2525,N,00559.2030,W,1,,,315.1,M,,,,*0C
$GPRMC,130740.00,A,4316.2525,N,00559.2030,W,1.8,,081216,,,A*6E
$GPGGA,131003.00,4316.2596,N,00559.1451,W,1,,,366.1,M,,,,*01
$GPRMC,131003.00,A,4316.2596,N,00559.1451,W,0.5,,081216,,,A*6B
$GPGGA,131033.00,4316.2605,N,00559.1464,W,1,,,358.1,M,,,,*00
$GPRMC,131033.00,A,4316.2605,N,00559.1464,W,0.8,,081216,,,A*6A
$GPGGA,131103.00,4316.2593,N,00559.1343,W,1,,,355.1,M,,,,*01
$GPRMC,131103.00,A,4316.2593,N,00559.1343,W,0.5,,081216,,,A*6B
$GPGGA,131134.00,4316.2578,N,00559.1301,W,1,,,353.1,M,,,,*00
$GPRMC,131134.00,A,4316.2578,N,00559.1301,W,0.4,,081216,,,A*6D
$GPGGA,131204.00,4316.2525,N,00559.1215,W,1,,,359.1,M,,,,*06
$GPRMC,131204.00,A,4316.2525,N,00559.1215,W,1.2,,081216,,,A*66
$GPGGA,131235.00,4316.2439,N,00559.1154,W,1,,,353.1,M,,,,*04
$GPRMC,131235.00,A,4316.2439,N,00559.1154,W,2.4,,081216,,,A*6B
$GPGGA,131305.00,4316.2412,N,00559.1104,W,1,,,356.1,M,,,,*0F
$GPRMC,131305.00,A,4316.2412,N,00559.1104,W,0.0,,081216,,,A*63
$GPGGA,131336.00,4316.2417,N,00559.1109,W,1,,,351.1,M,,,,*00
$GPRMC,131336.00,A,4316.2417,N,00559.1109,W,0.6,,081216,,,A*6D
$GPGGA,131406.00,4316.2345,N,00559.1041,W,1,,,346.1,M,,,,*0F
$GPRMC,131406.00,A,4316.2345,N,00559.1041,W,1.8,,081216,,,A*6B
$GPGGA,131437.00,4316.2316,N,00559.1003,W,1,,,353.1,M,,,,*09
$GPRMC,131437.00,A,4316.2316,N,00559.1003,W,0.0,,081216,,,A*60
$GPGGA,131507.00,4316.2239,N,00559.0974,W,1,,,354.1,M,,,,*08
$GPRMC,131507.00,A,4316.2239,N,00559.0974,W,0.2,,081216,,,A*64
$GPGGA,131538.00,4316.2204,N,00559.0947,W,1,,,358.1,M,,,,*06
$GPRMC,131538.00,A,4316.2204,N,00559.0947,W,0.0,,081216,,,A*64
$GPGGA,131608.00,4316.2158,N,00559.0969,W,1,,,359.1,M,,,,*01
$GPRMC,131608.00,A,4316.2158,N,00559.0969,W,0.0,,081216,,,A*62
$GPGGA,131639.00,4316.2162,N,00559.0969,W,1,,,358.1,M,,,,*0B
$GPRMC,131639.00,A,4316.2162,N,00559.0969,W,0.0,,081216,,,A*69
$GPGGA,131709.00,4316.2175,N,00559.0948,W,1,,,358.1,M,,,,*0C
$GPRMC,131709.00,A,4316.2175,N,00559.0948,W,0.0,,081216,,,A*6E
$GPGGA,131740.00,4316.2173,N,00559.0949,W,1,,,358.1,M,,,,*06
$GPRMC,131740.00,A,4316.2173,N,00559.0949,W,0.0,,081216,,,A*64
$GPGGA,131810.00,4316.2168,N,00559.0948,W,1,,,358.1,M,,,,*07
$GPRMC,131810.00,A,4316.2168,N,00559.0948,W,0.6,,081216,,,A*63
$GPGGA,131841.00,4316.2186,N,00559.0947,W,1,,,358.1,M,,,,*0C
$GPRMC,131841.00,A,4316.2186,N,00559.0947,W,0.0,,081216,,,A*6E
$GPGGA,131911.00,4316.2157,N,00559.0950,W,1,,,378.1,M,,,,*00
$GPRMC,131911.00,A,4316.2157,N,00559.0950,W,0.0,,081216,,,A*60
$GPGGA,131942.00,4316.2098,N,00559.0879,W,1,,,377.1,M,,,,*01
$GPRMC,131942.00,A,4316.2098,N,00559.0879,W,1.2,,081216,,,A*6D
$GPGGA,132013.00,4316.2026,N,00559.0772,W,1,,,397.1,M,,,,*00
$GPRMC,132013.00,A,4316.2026,N,00559.0772,W,0.8,,081216,,,A*69
$GPGGA,132043.00,4316.1906,N,00559.0659,W,1,,,396.1,M,,,,*04
$GPRMC,132043.00,A,4316.1906,N,00559.0659,W,0.0,,081216,,,A*64
$GPGGA,132114.00,4316.1802,N,00559.0518,W,1,,,403.1,M,,,,*0F
$GPRMC,132114.00,A,4316.1802,N,00559.0518,W,0.8,,081216,,,A*6C
$GPGGA,132144.00,4316.1830,N,00559.0510,W,1,,,396.1,M,,,,*08
$GPRMC,132144.00,A,4316.1830,N,00559.0510,W,0.0,,081216,,,A*68
$GPGGA,132215.00,4316.1804,N,00559.0460,W,1,,,396.1,M,,,,*0E
$GPRMC,132215.00,A,4316.1804,N,00559.0460,W,1.0,,081216,,,A*6F
$GPGGA,132245.00,4316.1796,N,00559.0410,W,1,,,395.1,M,,,,*0B
$GPRMC,132245.00,A,4316.1796,N,00559.0410,W,0.7,,081216,,,A*6F
$GPGGA,132316.00,4316.1730,N,00559.0360,W,1,,,394.1,M,,,,*01
$GPRMC,132316.00,A,4316.1730,N,00559.0360,W,0.0,,081216,,,A*63
$GPGGA,132346.00,4316.1746,N,00559.0346,W,1,,,387.1,M,,,,*03
$GPRMC,132346.00,A,4316.1746,N,00559.0346,W,0.0,,081216,,,A*63
$GPGGA,132416.00,4316.1712,N,00559.0302,W,1,,,387.1,M,,,,*00
$GPRMC,132416.00,A,4316.1712,N,00559.0302,W,0.0,,081216,,,A*60
$GPGGA,132454.00,4316.1530,N,00559.0500,W,1,,,396.1,M,,,,*00
$GPRMC,132454.00,A,4316.1530,N,00559.0500,W,0.0,,081216,,,A*60
$GPGGA,132524.00,4316.1513,N,00559.0391,W,1,,,390.1,M,,,,*0F
$GPRMC,132524.00,A,4316.1513,N,00559.0391,W,0.0,,081216,,,A*69
$GPGGA,132555.00,4316.1593,N,00559.0281,W,1,,,389.1,M,,,,*09
$GPRMC,132555.00,A,4316.1593,N,00559.0281,W,0.0,,081216,,,A*67
$GPGGA,132625.00,4316.1609,N,00559.0285,W,1,,,389.1,M,,,,*09
$GPRMC,132625.00,A,4316.1609,N,00559.0285,W,0.0,,081216,,,A*67
$GPGGA,132843.00,4316.1286,N,00559.0001,W,1,,,389.1,M,,,,*0A
$GPRMC,132843.00,A,4316.1286,N,00559.0001,W,0.0,,081216,,,A*64
$GPGGA,133653.00,4316.0903,N,00558.9285,W,1,,,389.1,M,,,,*05
$GPRMC,133653.00,A,4316.0903,N,00558.9285,W,0.0,,081216,,,A*6B
$GPGGA,133724.00,4316.0984,N,00558.9273,W,1,,,389.1,M,,,,*02
$GPRMC,133724.00,A,4316.0984,N,00558.9273,W,0.0,,081216,,,A*6C
$GPGGA,133754.00,4316.0791,N,00558.9232,W,1,,,390.1,M,,,,*02
$GPRMC,133754.00,A,4316.0791,N,00558.9232,W,0.0,,081216,,,A*64
$GPGGA,133900.00,4316.1223,N,00558.8793,W,1,,,390.1,M,,,,*0F
$GPRMC,133900.00,A,4316.1223,N,00558.8793,W,0.0,,081216,,,A*69
$GPGGA,133931.00,4316.0967,N,00558.8963,W,1,,,389.1,M,,,,*0E
$GPRMC,133931.00,A,4316.0967,N,00558.8963,W,1.0,,081216,,,A*61
$GPGGA,134002.00,4316.1004,N,00558.8904,W,1,,,389.1,M,,,,*0C
$GPRMC,134002.00,A,4316.1004,N,00558.8904,W,0.0,,081216,,,A*62
$GPGGA,134032.00,4316.1050,N,00558.8839,W,1,,,389.1,M,,,,*01
$GPRMC,134032.00,A,4316.1050,N,00558.8839,W,0.0,,081216,,,A*6F
$GPGGA,134103.00,4316.1009,N,00558.8760,W,1,,,388.1,M,,,,*0C
$GPRMC,134103.00,A,4316.1009,N,00558.8760,W,0.0,,081216,,,A*63
$GPGGA,134228.00,4316.0719,N,00558.8438,W,1,,,388.1,M,,,,*0F
$GPRMC,134228.00,A,4316.0719,N,00558.8438,W,0.0,,081216,,,A*60
$GPGGA,134258.00,4316.0549,N,00558.8787,W,1,,,389.1,M,,,,*09
$GPRMC,134258.00,A,4316.0549,N,00558.8787,W,0.0,,081216,,,A*67
$GPGGA,134434.00,4316.0553,N,00558.8148,W,1,,,388.1,M,,,,*0A
$GPRMC,134434.00,A,4316.0553,N,00558.8148,W,0.0,,081216,,,A*65
$GPGGA,134505.00,4316.0510,N,00558.8147,W,1,,,406.1,M,,,,*00
$GPRMC,134505.00,A,4316.0510,N,00558.8147,W,0.0,,081216,,,A*6E
$GPGGA,134536.00,4316.0400,N,00558.8134,W,1,,,416.1,M,,,,*05
$GPRMC,134536.00,A,4316.0400,N,00558.8134,W,0.0,,081216,,,A*6A
$GPGGA,134607.00,4316.0484,N,00558.8102,W,1,,,385.1,M,,,,*00
$GPRMC,134607.00,A,4316.0484,N,00558.8102,W,0.0,,081216,,,A*62
$GPGGA,134637.00,4316.0403,N,00558.8139,W,1,,,404.1,M,,,,*0A
$GPRMC,134637.00,A,4316.0403,N,00558.8139,W,0.0,,081216,,,A*66
$GPGGA,134708.00,4316.0326,N,00558.8025,W,1,,,409.1,M,,,,*06
$GPRMC,134708.00,A,4316.0326,N,00558.8025,W,0.0,,081216,,,A*67
$GPGGA,134739.00,4316.0290,N,00558.7873,W,1,,,367.1,M,,,,*03
$GPRMC,134739.00,A,4316.0290,N,00558.7873,W,0.0,,081216,,,A*6D
$GPGGA,134809.00,4316.0286,N,00558.7784,W,1,,,388.1,M,,,,*0E
$GPRMC,134809.00,A,4316.0286,N,00558.7784,W,0.0,,081216,,,A*61
$GPGGA,134840.00,4316.0266,N,00558.7761,W,1,,,430.1,M,,,,*02
$GPRMC,134840.00,A,4316.0266,N,00558.7761,W,0.0,,081216,,,A*69
$GPGGA,134910.00,4316.0306,N,00558.7588,W,1,,,410.1,M,,,,*06
$GPRMC,134910.00,A,4316.0306,N,00558.7588,W,0.0,,081216,,,A*6F
$GPGGA,134941.00,4316.0278,N,00558.7771,W,1,,,410.1,M,,,,*0E
$GPRMC,134941.00,A,4316.0278,N,00558.7771,W,0.0,,081216,,,A*67
$GPGGA,135011.00,4316.0294,N,00558.7547,W,1,,,468.1,M,,,,*09
$GPRMC,135011.00,A,4316.0294,N,00558.7547,W,0.0,,081216,,,A*6F
$GPGGA,135042.00,4316.0285,N,00558.7437,W,1,,,408.1,M,,,,*0F
$GPRMC,135042.00,A,4316.0285,N,00558.7437,W,0.0,,081216,,,A*6F
$GPGGA,135115.00,4316.0301,N,00558.7322,W,1,,,426.1,M,,,,*0E
$GPRMC,135115.00,A,4316.0301,N,00558.7322,W,0.0,,081216,,,A*62
$GPGGA,135146.00,4316.0351,N,00558.7249,W,1,,,391.1,M,,,,*0A
$GPRMC,135146.00,A,4316.0351,N,00558.7249,W,0.0,,081216,,,A*6D
$GPGGA,135216.00,4316.0355,N,00558.7193,W,1,,,381.1,M,,,,*0D
$GPRMC,135216.00,A,4316.0355,N,00558.7193,W,0.0,,081216,,,A*6B
$GPGGA,135247.00,4316.0290,N,00558.7267,W,1,,,412.1,M,,,,*04
$GPRMC,135247.00,A,4316.0290,N,00558.7267,W,0.0,,081216,,,A*6F
$GPGGA,135317.00,4316.0278,N,00558.7015,W,1,,,410.1,M,,,,*03
$GPRMC,135317.00,A,4316.0278,N,00558.7015,W,0.0,,081216,,,A*6A
$GPGGA,135348.00,4316.0264,N,00558.6989,W,1,,,394.1,M,,,,*02
$GPRMC,135348.00,A,4316.0264,N,00558.6989,W,0.5,,081216,,,A*65
$GPGGA,135418.00,4316.0239,N,00558.6933,W,1,,,385.1,M,,,,*09
$GPRMC,135418.00,A,4316.0239,N,00558.6933,W,0.0,,081216,,,A*6B
$GPGGA,135449.00,4316.0057,N,00558.6443,W,1,,,332.1,M,,,,*01
$GPRMC,135449.00,A,4316.0057,N,00558.6443,W,0.0,,081216,,,A*6F
$GPGGA,135520.00,4316.0031,N,00558.6489,W,1,,,349.1,M,,,,*05
$GPRMC,135520.00,A,4316.0031,N,00558.6489,W,0.0,,081216,,,A*67
$GPGGA,135550.00,4316.0119,N,00558.6451,W,1,,,356.1,M,,,,*02
$GPRMC,135550.00,A,4316.0119,N,00558.6451,W,0.0,,081216,,,A*6E
$GPGGA,135620.00,4316.0150,N,00558.6362,W,1,,,352.1,M,,,,*08
$GPRMC,135620.00,A,4316.0150,N,00558.6362,W,0.0,,081216,,,A*60
$GPGGA,135654.00,4316.0172,N,00558.6310,W,1,,,351.1,M,,,,*0D
$GPRMC,135654.00,A,4316.0172,N,00558.6310,W,0.0,,081216,,,A*66
$GPGGA,135724.00,4316.0089,N,00558.6347,W,1,,,351.1,M,,,,*0C
$GPRMC,135724.00,A,4316.0089,N,00558.6347,W,0.0,,081216,,,A*67
$GPGGA,135756.00,4316.0060,N,00558.6153,W,1,,,350.1,M,,,,*08
$GPRMC,135756.00,A,4316.0060,N,00558.6153,W,0.0,,081216,,,A*62
$GPGGA,135828.00,4316.0006,N,00558.6128,W,1,,,351.1,M,,,,*03
$GPRMC,135828.00,A,4316.0006,N,00558.6128,W,0.0,,081216,,,A*68
$GPGGA,135859.00,4315.9962,N,00558.6034,W,1,,,351.1,M,,,,*08
$GPRMC,135859.00,A,4315.9962,N,00558.6034,W,0.0,,081216,,,A*63
$GPGGA,135930.00,4315.9975,N,00558.5955,W,1,,,351.1,M,,,,*0D
$GPRMC,135930.00,A,4315.9975,N,00558.5955,W,0.0,,081216,,,A*66
$GPGGA,140000.00,4315.9960,N,00558.5977,W,1,,,360.1,M,,,,*03
$GPRMC,140000.00,A,4315.9960,N,00558.5977,W,0.0,,081216,,,A*6A
$GPGGA,140031.00,4316.0034,N,00558.6083,W,1,,,416.1,M,,,,*04
$GPRMC,140031.00,A,4316.0034,N,00558.6083,W,0.0,,081216,,,A*6B
$GPGGA,140101.00,4316.0062,N,00558.6162,W,1,,,479.1,M,,,,*02
$GPRMC,140101.00,A,4316.0062,N,00558.6162,W,0.0,,081216,,,A*64
$GPGGA,140132.00,4316.0159,N,00558.5875,W,1,,,456.1,M,,,,*0A
$GPRMC,140132.00,A,4316.0159,N,00558.5875,W,0.0,,081216,,,A*61
$GPGGA,140202.00,4316.0067,N,00558.5660,W,1,,,396.1,M,,,,*07
$GPRMC,140202.00,A,4316.0067,N,00558.5660,W,0.0,,081216,,,A*67
$GPGGA,140232.00,4316.0270,N,00558.5396,W,1,,,475.1,M,,,,*06
$GPRMC,140232.00,A,4316.0270,N,00558.5396,W,0.0,,081216,,,A*6C
$GPGGA,140303.00,4316.0214,N,00558.5302,W,1,,,441.1,M,,,,*0D
$GPRMC,140303.00,A,4316.0214,N,00558.5302,W,0.0,,081216,,,A*60
$GPGGA,140333.00,4316.0140,N,00558.5300,W,1,,,455.1,M,,,,*0B
$GPRMC,140333.00,A,4316.0140,N,00558.5300,W,0.0,,081216,,,A*63
$GPGGA,140403.00,4316.0121,N,00558.5262,W,1,,,478.1,M,,,,*02
$GPRMC,140403.00,A,4316.0121,N,00558.5262,W,0.0,,081216,,,A*65
$GPGGA,140433.00,4316.0097,N,00558.5086,W,1,,,457.1,M,,,,*08
$GPRMC,140433.00,A,4316.0097,N,00558.5086,W,0.0,,081216,,,A*62
$GPGGA,140504.00,4316.0161,N,00558.4883,W,1,,,479.1,M,,,,*05
$GPRMC,140504.00,A,4316.0161,N,00558.4883,W,0.0,,081216,,,A*63
$GPGGA,140534.00,4316.0157,N,00558.4881,W,1,,,478.1,M,,,,*00
$GPRMC,140534.00,A,4316.0157,N,00558.4881,W,0.0,,081216,,,A*67
$GPGGA,140605.00,4316.0152,N,00558.4879,W,1,,,477.1,M,,,,*0C
$GPRMC,140605.00,A,4316.0152,N,00558.4879,W,0.0,,081216,,,A*64
$GPGGA,140635.00,4316.0147,N,00558.4876,W,1,,,476.1,M,,,,*05
$GPRMC,140635.00,A,4316.0147,N,00558.4876,W,0.0,,081216,,,A*6C
$GPGGA,140705.00,4316.0147,N,00558.4872,W,1,,,476.1,M,,,,*03
$GPRMC,140705.00,A,4316.0147,N,00558.4872,W,0.0,,081216,,,A*6A
$GPGGA,140736.00,4316.0142,N,00558.4864,W,1,,,477.1,M,,,,*00
$GPRMC,140736.00,A,4316.0142,N,00558.4864,W,0.0,,081216,,,A*68
$GPGGA,140806.00,4316.0135,N,00558.4856,W,1,,,476.1,M,,,,*0C
$GPRMC,140806.00,A,4316.0135,N,00558.4856,W,0.0,,081216,,,A*65
$GPGGA,140837.00,4316.0126,N,00558.4845,W,1,,,476.1,M,,,,*0E
$GPRMC,140837.00,A,4316.0126,N,00558.4845,W,0.0,,081216,,,A*67
$GPGGA,140907.00,4316.0115,N,00558.4832,W,1,,,476.1,M,,,,*0C
$GPRMC,140907.00,A,4316.0115,N,00558.4832,W,0.0,,081216,,,A*65
$GPGGA,140937.00,4316.0102,N,00558.4819,W,1,,,476.1,M,,,,*00
$GPRMC,140937.00,A,4316.0102,N,00558.4819,W,0.0,,081216,,,A*69
$GPGGA,141008.00,4316.0087,N,00558.4806,W,1,,,476.1,M,,,,*06
$GPRMC,141008.00,A,4316.0087,N,00558.4806,W,0.0,,081216,,,A*6F
$GPGGA,141038.00,4316.0075,N,00558.4796,W,1,,,476.1,M,,,,*0E
$GPRMC,141038.00,A,4316.0075,N,00558.4796,W,0.0,,081216,,,A*67
$GPGGA,141108.00,4316.0064,N,00558.4790,W,1,,,475.1,M,,,,*09
$GPRMC,141108.00,A,4316.0064,N,00558.4790,W,0.0,,081216,,,A*63
$GPGGA,141138.00,4316.0048,N,00558.4782,W,1,,,475.1,M,,,,*07
$GPRMC,141138.00,A,4316.0048,N,00558.4782,W,0.0,,081216,,,A*6D
$GPGGA,141209.00,4316.0034,N,00558.4774,W,1,,,475.1,M,,,,*04
$GPRMC,141209.00,A,4316.0034,N,00558.4774,W,0.0,,081216,,,A*6E
$GPGGA,141239.00,4316.0021,N,00558.4768,W,1,,,475.1,M,,,,*0E
$GPRMC,141239.00,A,4316.0021,N,00558.4768,W,0.0,,081216,,,A*64
$GPGGA,141309.00,4316.0001,N,00558.4754,W,1,,,477.1,M,,,,*03
$GPRMC,141309.00,A,4316.0001,N,00558.4754,W,0.0,,081216,,,A*6B
$GPGGA,141340.00,4315.9978,N,00558.4737,W,1,,,478.1,M,,,,*09
$GPRMC,141340.00,A,4315.9978,N,00558.4737,W,2.1,,081216,,,A*6D
$GPGGA,141410.00,4315.9962,N,00558.4729,W,1,,,478.1,M,,,,*0F
$GPRMC,141410.00,A,4315.9962,N,00558.4729,W,1.7,,081216,,,A*6E
$GPGGA,141440.00,4315.9958,N,00558.4729,W,1,,,479.1,M,,,,*02
$GPRMC,141440.00,A,4315.9958,N,00558.4729,W,1.8,,081216,,,A*6D
$GPGGA,141511.00,4315.9947,N,00558.4722,W,1,,,479.1,M,,,,*02
$GPRMC,141511.00,A,4315.9947,N,00558.4722,W,0.1,,081216,,,A*65
$GPGGA,141541.00,4315.9938,N,00558.4716,W,1,,,480.1,M,,,,*0E
$GPRMC,141541.00,A,4315.9938,N,00558.4716,W,1.0,,081216,,,A*6F
$GPGGA,141611.00,4315.9924,N,00558.4708,W,1,,,480.1,M,,,,*0A
$GPRMC,141611.00,A,4315.9924,N,00558.4708,W,0.0,,081216,,,A*6A
$GPGGA,141641.00,4315.9889,N,00558.4688,W,1,,,481.1,M,,,,*01
$GPRMC,141641.00,A,4315.9889,N,00558.4688,W,0.0,,081216,,,A*60
$GPGGA,141712.00,4315.8844,N,00558.4064,W,1,,,560.1,M,,,,*0C
$GPRMC,141712.00,A,4315.8844,N,00558.4064,W,0.0,,081216,,,A*63
$GPGGA,141742.00,4315.8839,N,00558.4065,W,1,,,559.1,M,,,,*08
$GPRMC,141742.00,A,4315.8839,N,00558.4065,W,0.0,,081216,,,A*6D
$GPGGA,141812.00,4315.8834,N,00558.4065,W,1,,,558.1,M,,,,*0E
$GPRMC,141812.00,A,4315.8834,N,00558.4065,W,0.0,,081216,,,A*6A
$GPGGA,141842.00,4315.8829,N,00558.4065,W,1,,,556.1,M,,,,*09
$GPRMC,141842.00,A,4315.8829,N,00558.4065,W,0.0,,081216,,,A*63
$GPGGA,141913.00,4315.8826,N,00558.4065,W,1,,,556.1,M,,,,*03
$GPRMC,141913.00,A,4315.8826,N,00558.4065,W,0.0,,081216,,,A*69
$GPGGA,141943.00,4315.8821,N,00558.4063,W,1,,,555.1,M,,,,*04
$GPRMC,141943.00,A,4315.8821,N,00558.4063,W,0.0,,081216,,,A*6D
$GPGGA,142013.00,4315.8819,N,00558.4062,W,1,,,555.1,M,,,,*01
$GPRMC,142013.00,A,4315.8819,N,00558.4062,W,0.9,,081216,,,A*61
$GPGGA,142043.00,4315.8817,N,00558.4060,W,1,,,555.1,M,,,,*08
$GPRMC,142043.00,A,4315.8817,N,00558.4060,W,0.0,,081216,,,A*61
$GPGGA,142113.00,4315.8806,N,00558.4057,W,1,,,554.1,M,,,,*09
$GPRMC,142113.00,A,4315.8806,N,00558.4057,W,0.0,,081216,,,A*61
$GPGGA,142144.00,4315.8802,N,00558.4059,W,1,,,553.1,M,,,,*06
$GPRMC,142144.00,A,4315.8802,N,00558.4059,W,0.0,,081216,,,A*69
$GPGGA,142214.00,4315.8793,N,00558.4057,W,1,,,552.1,M,,,,*08
$GPRMC,142214.00,A,4315.8793,N,00558.4057,W,0.0,,081216,,,A*66
$GPGGA,142245.00,4315.8786,N,00558.4055,W,1,,,552.1,M,,,,*0A
$GPRMC,142245.00,A,4315.8786,N,00558.4055,W,0.0,,081216,,,A*64
$GPGGA,142315.00,4315.8781,N,00558.4053,W,1,,,552.1,M,,,,*0F
$GPRMC,142315.00,A,4315.8781,N,00558.4053,W,0.0,,081216,,,A*61
